City_ID,City,Country,Date,Lat,Lng,Max Temp,Humidity,Cloudiness,Wind Speed
0,Gelemso,ET,2022-05-22 04:37:03,8.8167,40.5167,68.13,66,77,6.06
1,Fornosovo,RU,2022-05-22 04:37:04,59.5689,30.5544,46.63,51,0,7.0
2,Hithadhoo,MV,2022-05-22 04:32:28,-0.6,73.0833,83.46,69,100,11.03
3,Billings,US,2022-05-22 04:37:04,45.7833,-108.5007,44.37,54,75,6.91
4,Ushuaia,AR,2022-05-22 04:32:49,-54.8,-68.3,37.06,81,0,3.44
5,Shetpe,KZ,2022-05-22 04:37:05,44.1667,52.1167,64.67,49,43,23.49
6,Georgetown,MY,2022-05-22 04:32:30,5.4112,100.3354,87.75,74,40,5.99
7,Khatanga,RU,2022-05-22 04:36:50,71.9667,102.5,36.21,86,100,8.14
8,Kapaa,US,2022-05-22 04:31:11,22.0752,-159.319,78.78,89,75,11.5
9,Puerto Ayora,EC,2022-05-22 04:31:02,-0.7393,-90.3518,71.08,89,56,5.82
10,Atuona,PF,2022-05-22 04:34:05,-9.8,-139.0333,77.61,79,20,8.46
11,Mahebourg,MU,2022-05-22 04:36:53,-20.4081,57.7,73.69,78,40,5.75
12,Lavrentiya,RU,2022-05-22 04:37:07,65.5833,-171.0,37.92,83,99,9.48
13,Saskylakh,RU,2022-05-22 04:34:12,71.9167,114.0833,34.81,100,100,3.31
14,Hovd,MN,2022-05-22 04:32:44,48.0056,91.6419,70.52,15,46,4.83
15,Albany,US,2022-05-22 04:28:06,42.6001,-73.9662,77.52,85,52,2.57
16,San Juan,AR,2022-05-22 04:37:08,-31.5375,-68.5364,55.49,31,89,4.54
17,Hobart,AU,2022-05-22 04:34:22,-42.8794,147.3294,56.26,73,75,10.36
18,Saldanha,ZA,2022-05-22 04:33:02,-33.0117,17.9442,42.85,82,53,4.07
19,Leningradskiy,RU,2022-05-22 04:37:09,69.3833,178.4167,34.21,96,97,11.05
20,Hammerfest,NO,2022-05-22 04:37:10,70.6634,23.6821,45.05,65,100,2.3
21,Mount Isa,AU,2022-05-22 04:37:10,-20.7333,139.5,78.57,38,40,5.75
22,Cabo San Lucas,MX,2022-05-22 04:34:43,22.8909,-109.9124,74.61,67,1,13.6
23,Nikolskoye,RU,2022-05-22 04:35:30,59.7035,30.7861,46.87,50,0,6.46
24,Krasnoborsk,RU,2022-05-22 04:37:11,61.5598,45.934,35.1,70,100,9.64
25,Codrington,AU,2022-05-22 04:36:49,-38.2667,141.9667,58.8,62,5,8.66
26,Vaini,TO,2022-05-22 04:31:09,-21.2,-175.2,80.76,74,40,6.91
27,Paraopeba,BR,2022-05-22 04:37:12,-19.2757,-44.4033,52.21,77,0,4.05
28,Nalut,LY,2022-05-22 04:37:13,30.3333,10.85,63.41,13,0,9.35
29,Butaritari,KI,2022-05-22 04:32:18,3.0707,172.7902,81.72,78,85,11.63
30,Ouesso,CG,2022-05-22 04:37:13,1.6136,16.0517,69.58,89,95,2.24
31,Northam,GB,2022-05-22 04:37:14,51.0333,-4.2167,51.62,88,79,7.31
32,Sahuaripa,MX,2022-05-22 04:37:14,29.05,-109.2333,74.77,32,42,5.12
33,Bredasdorp,ZA,2022-05-22 04:32:55,-34.5322,20.0403,51.35,84,36,6.26
34,Yuma,US,2022-05-22 04:37:15,32.7253,-114.6244,81.37,33,0,13.8
35,Busselton,AU,2022-05-22 04:32:50,-33.65,115.3333,68.23,72,53,24.67
36,Port Alfred,ZA,2022-05-22 04:37:16,-33.5906,26.891,57.06,80,2,5.77
37,Bluff,NZ,2022-05-22 04:35:28,-46.6,168.3333,48.67,65,69,21.39
38,Mataura,NZ,2022-05-22 04:37:16,-46.1927,168.8643,42.35,82,68,8.08
39,Bowen,AU,2022-05-22 04:35:19,-20.0167,148.2333,77.2,70,62,16.11
40,Kovur,IN,2022-05-22 04:37:17,14.4833,79.9833,89.53,46,99,18.54
41,Punta Arenas,CL,2022-05-22 04:31:24,-53.15,-70.9167,37.51,75,75,3.44
42,Sept-Iles,CA,2022-05-22 04:30:02,50.2001,-66.3821,46.92,97,100,3.44
43,Thompson,CA,2022-05-22 04:28:06,55.7435,-97.8558,35.76,64,20,0.0
44,Barrow,US,2022-05-22 04:38:19,71.2906,-156.7887,23.02,86,100,12.66
45,Korcula,HR,2022-05-22 04:38:19,42.9622,17.1369,68.54,75,97,1.39
46,Iskele,TR,2022-05-22 04:38:20,39.484,26.9278,51.89,82,0,3.44
47,Vardo,NO,2022-05-22 04:38:20,70.3705,31.1107,39.18,87,100,18.41
48,Dunedin,NZ,2022-05-22 04:38:21,-45.8742,170.5036,49.8,64,87,10.0
49,Presidencia Roque Saenz Pena,AR,2022-05-22 04:38:21,-26.7852,-60.4388,52.95,84,21,5.26
50,Logan,US,2022-05-22 04:37:11,41.7355,-111.8344,51.48,52,0,5.75
51,Neryungri,RU,2022-05-22 04:38:22,56.6709,124.6491,46.42,75,100,4.23
52,Kodiak,US,2022-05-22 04:32:52,57.79,-152.4072,45.91,93,100,18.41
53,Ramgarh,IN,2022-05-22 04:38:23,23.6333,85.5167,86.05,16,58,12.73
54,Karwar,IN,2022-05-22 04:34:09,14.8,74.1333,83.07,76,74,7.02
55,Lompoc,US,2022-05-22 04:35:29,34.6391,-120.4579,56.01,85,100,6.91
56,San Cristobal,VE,2022-05-22 04:38:23,7.7669,-72.225,69.98,85,17,2.95
57,San Andres,CO,2022-05-22 04:38:24,12.5847,-81.7006,78.82,89,75,3.44
58,Luorong,CN,2022-05-22 04:38:24,24.4058,109.6086,70.92,91,100,6.2
59,Ribeira Grande,PT,2022-05-22 04:35:37,38.5167,-28.7,63.99,94,100,1.83
60,Chokurdakh,RU,2022-05-22 04:32:33,70.6333,147.9167,34.45,100,100,1.77
61,Luderitz,NA,2022-05-22 04:35:44,-26.6481,15.1594,55.51,59,4,5.64
62,Narsaq,GL,2022-05-22 04:33:04,60.9167,-46.05,35.82,79,100,5.7
63,Anloga,GH,2022-05-22 04:38:26,5.7947,0.8973,77.74,84,100,15.35
64,Aklavik,CA,2022-05-22 04:38:27,68.2191,-135.0107,34.66,86,99,4.97
65,Kayerkan,RU,2022-05-22 04:38:27,69.3497,87.7602,46.53,87,98,2.55
66,Maniwaki,CA,2022-05-22 04:38:28,46.3834,-75.966,59.38,88,42,2.3
67,Sulangan,PH,2022-05-22 04:38:28,11.1373,123.7228,84.16,70,89,2.57
68,Faanui,PF,2022-05-22 04:38:29,-16.4833,-151.75,80.8,72,10,11.43
69,Bilma,NE,2022-05-22 04:38:29,18.6853,12.9164,78.73,17,2,13.82
70,Kraliky,CZ,2022-05-22 04:38:30,50.0838,16.7605,52.09,87,44,4.03
71,El Cope,PA,2022-05-22 04:38:30,8.6167,-80.6,68.86,93,96,1.59
72,Laguna,US,2022-05-22 04:38:30,38.421,-121.4238,75.49,32,0,8.05
73,Alofi,NU,2022-05-22 04:38:31,-19.0595,-169.9187,78.69,83,22,3.44
74,Zemio,CF,2022-05-22 04:38:31,5.0314,25.1361,70.65,85,100,2.35
75,Saint-Philippe,RE,2022-05-22 04:35:40,-21.3585,55.7679,72.99,74,18,9.69
76,Iqaluit,CA,2022-05-22 04:34:23,63.7506,-68.5145,31.73,86,100,21.85
77,Mandalgovi,MN,2022-05-22 04:38:32,45.7625,106.2708,69.93,19,92,19.04
78,Mata,PT,2022-05-22 04:38:33,40.683,-7.4592,57.92,91,76,3.04
79,Saint George,US,2022-05-22 04:35:30,37.1041,-113.5841,73.99,16,0,8.05
80,Udomlya,RU,2022-05-22 04:38:33,57.8794,34.9925,39.92,54,7,8.03
81,Corralillo,CU,2022-05-22 04:38:34,22.9819,-80.5856,78.28,85,45,13.11
82,Carnarvon,AU,2022-05-22 04:34:23,-24.8667,113.6333,76.28,60,13,22.35
83,Kimberley,ZA,2022-05-22 04:38:34,-28.7323,24.7623,44.29,93,0,2.3
84,Mar Del Plata,AR,2022-05-22 04:29:18,-38.0023,-57.5575,47.95,92,23,4.61
85,Chuy,UY,2022-05-22 04:38:35,-33.6971,-53.4616,49.86,91,95,5.55
86,Souillac,MU,2022-05-22 04:38:36,-20.5167,57.5167,73.78,78,40,5.75
87,Antanifotsy,MG,2022-05-22 04:38:36,-19.65,47.3167,56.01,68,7,0.72
88,Sorland,NO,2022-05-22 04:35:44,67.667,12.6934,46.26,95,100,7.16
89,Rikitea,PF,2022-05-22 04:30:56,-23.1203,-134.9692,75.56,77,5,13.33
90,Bilibino,RU,2022-05-22 04:39:37,68.0546,166.4372,49.71,57,71,8.05
91,Narrabri,AU,2022-05-22 04:39:38,-30.3167,149.7833,58.73,78,99,7.87
92,New Norfolk,AU,2022-05-22 04:30:59,-42.7826,147.0587,55.92,52,90,1.21
93,Hermanus,ZA,2022-05-22 04:32:17,-34.4187,19.2345,55.98,78,26,6.53
94,Castro,BR,2022-05-22 04:35:36,-24.7911,-50.0119,43.21,82,1,2.86
95,Esperance,AU,2022-05-22 04:39:39,-33.8667,121.9,74.37,50,22,17.87
96,Ponta Do Sol,PT,2022-05-22 04:39:40,32.6667,-17.1,66.83,77,64,3.29
97,Oistins,BB,2022-05-22 04:38:53,13.0667,-59.5333,80.69,74,20,19.57
98,Feltre,IT,2022-05-22 04:39:40,46.0235,11.907,68.13,89,56,3.71
99,Camana,PE,2022-05-22 04:39:41,-16.6228,-72.7111,65.26,85,95,6.8
100,Forbes,AU,2022-05-22 04:39:41,-33.3833,148.0167,69.93,49,17,7.72
101,Ambon,ID,2022-05-22 04:39:42,-3.6954,128.1814,87.94,74,40,4.61
102,Ngunguru,NZ,2022-05-22 04:39:43,-35.6167,174.5,60.94,73,100,12.97
103,Provideniya,RU,2022-05-22 04:39:43,64.3833,-173.3,49.01,53,99,10.65
104,Cururupu,BR,2022-05-22 04:35:32,-1.8283,-44.8683,71.02,98,35,1.74
105,Cape Town,ZA,2022-05-22 04:28:18,-33.9258,18.4232,56.12,89,0,6.91
106,Arcata,US,2022-05-22 04:37:07,40.8665,-124.0828,52.2,85,100,8.01
107,Victoria,HK,2022-05-22 04:32:16,22.2855,114.1577,82.96,82,97,11.99
108,Kavieng,PG,2022-05-22 04:39:44,-2.5744,150.7967,85.01,64,96,13.29
109,Olafsvik,IS,2022-05-22 04:39:45,64.8945,-23.7142,40.24,84,53,18.39
110,Kavaratti,IN,2022-05-22 04:39:45,10.5669,72.642,82.67,80,99,18.45
111,Rawson,AR,2022-05-22 04:39:46,-43.3002,-65.1023,57.74,46,71,21.52
112,Pevek,RU,2022-05-22 04:35:37,69.7008,170.3133,36.91,92,84,5.68
113,Mabaruma,GY,2022-05-22 04:39:47,8.2,-59.7833,72.93,96,100,4.9
114,Bethel,US,2022-05-22 04:34:13,41.3712,-73.414,73.65,85,0,0.0
115,Kaitangata,NZ,2022-05-22 04:31:00,-46.2817,169.8464,45.28,73,64,13.31
116,Arraial Do Cabo,BR,2022-05-22 04:34:10,-22.9661,-42.0278,68.47,74,11,6.06
117,Broome,US,2022-05-22 04:39:48,42.2506,-75.833,72.86,79,75,13.8
118,Hami,CN,2022-05-22 04:39:48,42.8,93.45,89.28,12,23,3.96
119,Panorama,GR,2022-05-22 04:39:49,40.5878,23.0315,67.14,62,69,1.99
120,Tuktoyaktuk,CA,2022-05-22 04:36:50,69.4541,-133.0374,24.8,80,75,10.36
121,Fort Saint James,CA,2022-05-22 04:39:49,54.4333,-124.25,45.48,50,14,3.91
122,Vanavara,RU,2022-05-22 04:39:50,60.34,102.2797,45.18,86,100,6.46
123,Inta,RU,2022-05-22 04:39:50,66.0317,60.1659,37.89,60,100,19.71
124,Channel-Port Aux Basques,CA,2022-05-22 04:39:51,47.5702,-59.1367,46.51,74,92,6.69
125,Tacuarembo,UY,2022-05-22 04:39:52,-31.7333,-55.9833,48.09,88,85,1.63
126,Hilo,US,2022-05-22 04:39:52,19.7297,-155.09,85.28,77,100,4.61
127,Tema,GH,2022-05-22 04:39:53,5.667,-0.0166,75.27,88,100,13.22
128,Abu Dhabi,AE,2022-05-22 04:38:52,24.4667,54.3667,87.96,62,0,4.61
129,Koumac,NC,2022-05-22 04:39:54,-20.5667,164.2833,79.27,77,69,2.04
130,Yellowknife,CA,2022-05-22 04:40:27,62.456,-114.3525,41.56,100,100,13.8
131,Rio Gallegos,AR,2022-05-22 04:39:30,-51.6226,-69.2181,41.05,60,0,17.27
132,Hwange,ZW,2022-05-22 04:40:55,-18.3693,26.5019,47.16,42,1,4.18
133,Jizan,SA,2022-05-22 04:40:55,17.3333,42.6667,85.14,41,8,1.59
134,Sao Filipe,CV,2022-05-22 04:40:56,14.8961,-24.4956,71.19,79,69,6.35
135,Yarada,IN,2022-05-22 04:39:18,17.65,83.2667,93.52,55,20,2.3
136,Daraitan,PH,2022-05-22 04:40:56,14.6028,121.4319,87.71,68,100,2.89
137,Sinnamary,GF,2022-05-22 04:36:38,5.3833,-52.95,76.69,89,100,9.42
138,Qaanaaq,GL,2022-05-22 04:34:14,77.484,-69.3632,13.87,86,99,6.04
139,Jamestown,US,2022-05-22 04:37:37,42.097,-79.2353,64.04,93,40,5.01
140,Okhotsk,RU,2022-05-22 04:40:57,59.3833,143.3,34.05,97,100,9.06
141,Ust-Tsilma,RU,2022-05-22 04:40:58,65.441,52.1498,34.92,60,100,13.47
142,Raduzhnyy,RU,2022-05-22 04:40:58,62.0961,77.475,57.97,44,93,14.92
143,Brunswick,US,2022-05-22 04:40:59,41.2381,-81.8418,64.92,95,100,4.61
144,Bambous Virieux,MU,2022-05-22 04:34:44,-20.3428,57.7575,73.65,78,40,5.75
145,Sao Joao Da Barra,BR,2022-05-22 04:40:59,-21.6403,-41.0511,63.0,89,13,5.44
146,Hamilton,US,2022-05-22 04:39:10,39.1834,-84.5333,67.06,96,75,8.05
147,Cidreira,BR,2022-05-22 04:40:45,-30.1811,-50.2056,55.58,81,97,4.18
148,Hay River,CA,2022-05-22 04:41:00,60.8156,-115.7999,44.58,81,98,9.22
149,Mezen,RU,2022-05-22 04:41:01,65.8522,44.24,34.68,56,93,11.88
150,Shuiji,CN,2022-05-22 04:41:01,27.4214,118.345,69.19,94,100,1.43
151,Meulaboh,ID,2022-05-22 04:41:01,4.1363,96.1285,83.84,72,89,3.18
152,Herten,DE,2022-05-22 04:41:02,51.6,7.1333,54.66,81,95,1.74
153,Cherskiy,RU,2022-05-22 04:33:12,68.75,161.3,59.52,35,33,14.65
154,Tautira,PF,2022-05-22 04:41:02,-17.7333,-149.15,79.75,72,23,10.76
155,Abu Samrah,SY,2022-05-22 04:41:03,35.3029,37.1841,80.15,12,84,10.27
156,Dormidontovka,RU,2022-05-22 04:41:04,47.7702,134.9076,53.73,71,100,10.63
157,Pointe-Noire,CG,2022-05-22 04:41:04,-4.7761,11.8635,72.99,87,97,4.23
158,Guerrero Negro,MX,2022-05-22 04:41:04,27.9769,-114.0611,60.64,78,96,13.58
159,Pacific Grove,US,2022-05-22 04:34:38,36.6177,-121.9166,56.25,85,100,6.91
160,Debre Birhan,ET,2022-05-22 04:41:05,9.6833,39.5333,61.84,26,71,3.27
161,Daru,PG,2022-05-22 04:41:06,-9.0763,143.2092,82.96,75,98,11.52
162,Sur,OM,2022-05-22 04:35:40,22.5667,59.5289,101.3,27,0,9.28
163,Port Elizabeth,ZA,2022-05-22 04:32:57,-33.918,25.5701,50.09,93,0,2.3
164,Nevelsk,RU,2022-05-22 04:41:06,46.6733,141.8633,57.38,65,95,10.94
165,Karratha,AU,2022-05-22 04:34:14,-20.7377,116.8463,82.02,62,100,7.07
166,Otane,NZ,2022-05-22 04:41:07,-39.8833,176.6333,61.02,62,2,15.55
167,Dicabisagan,PH,2022-05-22 04:41:08,17.0818,122.4157,85.39,71,95,3.94
168,Virginia Beach,US,2022-05-22 04:39:06,36.8529,-75.978,76.01,83,100,3.0
169,Leh,IN,2022-05-22 04:41:08,34.1667,77.5833,49.86,37,26,3.87
170,Port Blair,IN,2022-05-22 04:41:09,11.6667,92.75,87.84,74,40,13.8
171,Acarau,BR,2022-05-22 04:41:09,-2.8856,-40.12,75.04,88,30,8.37
172,Zakamensk,RU,2022-05-22 04:41:10,50.3741,103.2863,74.01,20,8,8.25
173,Marzuq,YE,2022-05-22 04:41:10,14.4,46.4667,86.34,14,47,2.15
174,Tiksi,RU,2022-05-22 04:36:51,71.6872,128.8694,31.39,92,100,4.94
175,Nantucket,US,2022-05-22 04:41:11,41.2835,-70.0995,66.31,96,0,8.05
176,Nanortalik,GL,2022-05-22 04:41:11,60.1432,-45.2371,39.33,85,100,9.42
177,Petrovsk,RU,2022-05-22 04:42:12,52.3064,45.3917,49.46,60,100,7.76
178,Celle,DE,2022-05-22 04:40:14,52.6226,10.0805,54.37,91,91,2.3
179,Tabriz,IR,2022-05-22 04:42:13,38.08,46.2919,60.26,31,0,2.3
180,Praia,CV,2022-05-22 04:41:24,14.9215,-23.5087,70.34,78,20,11.5
181,Iracoubo,GF,2022-05-22 04:42:13,5.4802,-53.2011,76.6,90,100,10.25
182,San Joaquin,US,2022-05-22 04:42:14,37.9333,-121.3011,75.45,28,0,12.66
183,Avarua,CK,2022-05-22 04:42:15,-21.2078,-159.775,77.05,83,75,3.44
184,Dikson,RU,2022-05-22 04:32:56,73.5069,80.5464,28.67,88,67,12.62
185,Port Hedland,AU,2022-05-22 04:42:16,-20.3167,118.5667,84.25,70,40,6.91
186,Maria Chiquita,PA,2022-05-22 04:42:17,9.4431,-79.7558,81.3,82,100,4.83
187,Yemanzhelinsk,RU,2022-05-22 04:42:17,54.7547,61.3208,45.57,64,53,16.42
188,Upernavik,GL,2022-05-22 04:42:17,72.7868,-56.1549,28.45,87,100,2.53
189,Buraydah,SA,2022-05-22 04:42:18,26.326,43.975,82.85,12,1,9.13
190,Tessalit,ML,2022-05-22 04:40:36,20.1986,1.0114,84.65,17,70,8.93
191,Grindavik,IS,2022-05-22 04:42:19,63.8424,-22.4338,43.27,87,0,24.16
192,Faya,SA,2022-05-22 04:42:19,18.3851,42.4509,66.72,9,31,7.07
193,Conakry,GN,2022-05-22 04:42:20,9.538,-13.6773,79.9,82,100,7.63
194,Zhigansk,RU,2022-05-22 04:42:20,66.7697,123.3711,48.79,47,39,6.62
195,Baturaja,ID,2022-05-22 04:42:21,-4.1333,104.1667,91.62,54,48,1.36
196,Kodinsk,RU,2022-05-22 04:42:21,58.6881,99.1844,55.04,46,71,10.02
197,Moroni,KM,2022-05-22 04:42:22,-11.7022,43.2551,79.14,78,35,8.25
198,Fomboni,KM,2022-05-22 04:42:22,-12.28,43.7425,80.98,69,20,10.98
199,Nyaunglebin,MM,2022-05-22 04:42:23,17.95,96.7333,90.48,61,62,3.56
200,Camacha,PT,2022-05-22 04:42:23,33.0833,-16.3333,62.02,77,20,11.5
201,Mayachnyy,RU,2022-05-22 04:42:24,52.6839,55.685,42.85,66,86,13.71
202,Inhambane,MZ,2022-05-22 04:42:24,-23.865,35.3833,69.78,94,75,3.44
203,Caravelas,BR,2022-05-22 04:32:58,-17.7125,-39.2481,70.29,73,0,6.69
204,Taoudenni,ML,2022-05-22 04:42:25,22.6783,-3.9836,85.12,11,0,12.08
205,Benguela,AO,2022-05-22 04:42:25,-12.5763,13.4055,67.91,79,65,1.48
206,Lagos,NG,2022-05-22 04:41:12,6.5833,3.75,73.72,90,100,4.45
207,Pingliang,CN,2022-05-22 04:42:26,35.5392,106.6861,75.79,39,1,10.78
208,Clyde River,CA,2022-05-22 04:35:28,70.4692,-68.5914,19.63,93,100,13.8
209,Avera,US,2022-05-22 04:42:27,33.194,-82.5271,75.25,92,100,9.64
210,Hofn,IS,2022-05-22 04:42:27,64.2539,-15.2082,46.36,87,100,15.93
211,Hendrina,ZA,2022-05-22 04:42:28,-26.1588,29.7153,43.77,91,69,8.08
212,Xining,CN,2022-05-22 04:42:28,36.6167,101.7667,69.08,30,0,3.67
213,Luena,AO,2022-05-22 04:42:29,-11.7833,19.9167,52.97,71,94,3.53
214,Touros,BR,2022-05-22 04:42:29,-5.1989,-35.4608,74.68,90,21,10.83
215,Itacare,BR,2022-05-22 04:42:30,-14.2775,-38.9967,69.91,79,3,8.95
216,Salalah,OM,2022-05-22 04:42:30,17.0151,54.0924,84.29,79,75,4.61
217,Kohat,PK,2022-05-22 04:42:30,33.582,71.4493,84.27,13,0,2.48
218,Zaysan,KZ,2022-05-22 04:43:31,47.4667,84.8667,73.42,38,100,6.58
219,Marawi,PH,2022-05-22 04:43:31,7.9986,124.2928,78.03,82,89,3.15
220,Kahului,US,2022-05-22 04:39:18,20.8947,-156.47,82.42,66,20,19.57
221,Cockburn Town,TC,2022-05-22 04:43:32,21.4612,-71.1419,79.38,82,100,19.1
222,Kushmurun,KZ,2022-05-22 04:43:32,52.4503,64.6311,45.25,71,98,10.2
223,Zaliztsi,UA,2022-05-22 04:43:33,49.7919,25.373,50.14,83,34,20.18
224,Talnakh,RU,2022-05-22 04:34:15,69.4865,88.3972,47.21,86,99,6.8
225,Zhaotong,CN,2022-05-22 04:39:10,27.3167,103.7167,51.78,87,100,2.84
226,Arlit,NE,2022-05-22 04:35:36,18.7369,7.3853,80.69,17,18,2.44
227,Ierapetra,GR,2022-05-22 04:43:34,35.01,25.7353,69.15,49,77,14.0
228,Sao Raimundo Nonato,BR,2022-05-22 04:43:35,-9.0153,-42.6994,68.27,84,19,3.18
229,Waingapu,ID,2022-05-22 04:43:35,-9.6567,120.2641,86.41,59,12,12.97
230,Palaikastron,GR,2022-05-22 04:43:36,35.2,26.25,66.33,66,54,17.4
231,Dragoman,BG,2022-05-22 04:43:36,42.9189,22.9317,64.02,75,48,3.78
232,Puerto Madryn,AR,2022-05-22 04:43:37,-42.7692,-65.0385,57.06,48,88,15.77
233,Nuuk,GL,2022-05-22 04:43:37,64.1835,-51.7216,43.41,81,75,33.38
234,Hambantota,LK,2022-05-22 04:43:38,6.1241,81.1185,86.34,79,20,14.97
235,Longyearbyen,SJ,2022-05-22 04:38:47,78.2186,15.6401,35.44,80,75,5.75
236,Ulaanbaatar,MN,2022-05-22 04:43:38,47.9077,106.8832,68.13,22,0,15.66
237,Shingu,JP,2022-05-22 04:43:39,33.7333,135.9833,73.36,61,50,6.08
238,Puerto Triunfo,CO,2022-05-22 04:43:39,5.8726,-74.6403,73.56,92,36,0.69
239,Peniche,PT,2022-05-22 04:43:40,39.3558,-9.3811,63.1,96,100,12.37
240,Otavi,NA,2022-05-22 04:43:40,-19.65,17.3333,41.81,47,0,10.27
241,Sant Julia De Loria,AD,2022-05-22 04:43:41,42.4625,1.4825,61.99,42,89,2.71
242,Kiruna,SE,2022-05-22 04:41:11,67.8557,20.2251,47.32,71,100,2.3
243,Douglas,US,2022-05-22 04:40:30,41.3,-96.167,48.02,62,0,4.61
244,Jiazi,CN,2022-05-22 04:42:55,22.8779,116.067,75.69,81,100,14.38
245,Rio Grande,BR,2022-05-22 04:43:42,-32.035,-52.0986,54.05,82,100,6.13
246,Nagua,DO,2022-05-22 04:43:43,19.3832,-69.8474,75.61,89,93,6.69
247,Nazas,MX,2022-05-22 04:43:43,25.2333,-104.1333,76.42,12,1,3.24
248,Kosa,RU,2022-05-22 04:43:44,59.9445,54.9977,33.89,97,100,7.16
249,Bulawayo,ZW,2022-05-22 04:43:44,-20.15,28.5833,46.18,41,1,2.59
250,Turayf,SA,2022-05-22 04:43:45,31.6725,38.6637,73.65,20,0,17.27
251,Pangnirtung,CA,2022-05-22 04:35:27,66.1451,-65.7125,28.17,82,100,8.23
252,Awbari,LY,2022-05-22 04:43:45,26.5921,12.7805,66.74,19,0,8.86
253,Yumen,CN,2022-05-22 04:43:46,40.2833,97.2,82.42,11,0,24.25
254,Pastos Bons,BR,2022-05-22 04:43:47,-6.6017,-44.0767,69.4,91,67,3.06
255,Birao,CF,2022-05-22 04:43:47,10.2849,22.7882,77.97,62,99,4.07
256,Batagay,RU,2022-05-22 04:43:48,67.6333,134.6333,53.02,44,98,2.37
257,Machachi,EC,2022-05-22 04:43:48,-0.5,-78.5667,51.3,93,59,4.81
258,Filadelfia,US,2022-05-22 04:40:47,39.9523,-75.1638,80.98,73,20,10.36
259,Na Wa,TH,2022-05-22 04:43:49,17.4897,104.1006,90.23,68,97,11.34
260,Lae,PG,2022-05-22 04:43:49,-6.7221,146.9847,92.07,63,28,7.56
261,Sao Jose Da Coroa Grande,BR,2022-05-22 04:43:50,-8.8978,-35.1478,76.78,84,91,13.98
262,Opuwo,NA,2022-05-22 04:43:50,-18.0607,13.84,51.51,19,0,8.14
263,Tezu,IN,2022-05-22 04:43:51,27.9167,96.1667,86.43,63,39,3.51
264,Fevik,NO,2022-05-22 04:44:51,58.3794,8.6766,42.57,76,100,2.37
265,Ankang,CN,2022-05-22 04:39:58,32.68,109.0172,72.9,69,96,2.59
266,Roswell,US,2022-05-22 04:41:39,34.0232,-84.3616,76.86,76,0,5.75
267,Sorong,ID,2022-05-22 04:35:45,-0.8833,131.25,82.65,75,98,2.8
268,Hualmay,PE,2022-05-22 04:44:52,-11.0964,-77.6139,63.41,88,74,7.34
269,Yatou,CN,2022-05-22 04:44:53,37.15,122.3833,83.84,33,0,6.67
270,Saint-Pierre,RE,2022-05-22 04:44:53,-21.3393,55.4781,75.9,53,0,5.75
271,Victoria Point,AU,2022-05-22 04:44:54,-27.5833,153.3,71.56,85,98,7.0
272,Kinston,US,2022-05-22 04:43:32,35.2627,-77.5816,75.52,88,0,6.91
273,Puerto Baquerizo Moreno,EC,2022-05-22 04:44:55,-0.9,-89.6,71.49,88,34,7.99
274,Lebu,CL,2022-05-22 04:44:55,-37.6167,-73.65,52.79,89,97,15.01
275,Carpentras,FR,2022-05-22 04:44:56,44.0833,5.1667,59.79,62,23,3.29
276,Elk Plain,US,2022-05-22 04:44:56,47.0532,-122.3976,58.48,68,0,5.75
277,Novyy Urengoy,RU,2022-05-22 04:44:57,66.0833,76.6333,40.46,74,100,6.17
278,Namatanai,PG,2022-05-22 04:44:57,-3.6667,152.4333,84.09,65,93,12.82
279,Preobrazheniye,RU,2022-05-22 04:44:58,42.9019,133.9064,55.6,90,55,4.79
280,Kismayo,SO,2022-05-22 04:44:58,-0.3582,42.5454,81.81,76,72,15.86
281,Jalu,LY,2022-05-22 04:44:59,29.0331,21.5482,64.42,67,0,8.88
282,Santa Maria,BR,2022-05-22 04:43:00,-29.6842,-53.8069,50.16,89,88,2.53
283,Muros,ES,2022-05-22 04:45:00,42.7762,-9.0603,64.09,92,90,0.81
284,Haapiti,PF,2022-05-22 04:45:01,-17.5667,-149.8667,80.33,71,17,10.98
285,Bathsheba,BB,2022-05-22 04:45:01,13.2167,-59.5167,81.21,74,20,19.57
286,Uppsala,SE,2022-05-22 04:45:02,60.0,17.75,40.51,93,0,0.0
287,Biak,ID,2022-05-22 04:45:02,-0.9131,122.8766,83.23,67,31,5.08
288,Itarema,BR,2022-05-22 04:45:03,-2.9248,-39.9167,74.17,91,22,7.63
289,Collipulli,CL,2022-05-22 04:45:03,-37.95,-72.4333,46.65,87,96,5.48
290,Loreto,MX,2022-05-22 04:45:04,22.2667,-101.9667,69.55,20,2,9.37
291,Gotsu,JP,2022-05-22 04:45:04,35.0,132.2167,70.54,71,0,13.4
292,Mackay,AU,2022-05-22 04:45:05,-21.15,149.2,76.68,79,100,17.38
293,Coihaique,CL,2022-05-22 04:43:57,-45.5752,-72.0662,34.41,93,75,1.14
294,Fortuna,US,2022-05-22 04:45:05,40.5982,-124.1573,51.93,88,100,11.5
295,Flinders,AU,2022-05-22 04:45:06,-34.5833,150.8552,63.37,82,86,7.78
296,Guiyang,CN,2022-05-22 04:45:07,26.5833,106.7167,61.29,94,100,6.71
297,Yulara,AU,2022-05-22 04:42:58,-25.2406,130.9889,71.51,26,66,6.93
298,Ruteng,ID,2022-05-22 04:45:07,-8.6136,120.4721,74.07,60,14,1.21
299,Moerai,PF,2022-05-22 04:45:08,-22.4333,-151.3333,77.79,74,12,8.46
300,Carutapera,BR,2022-05-22 04:45:08,-1.195,-46.02,72.27,95,18,3.09
301,Guozhen,CN,2022-05-22 04:45:09,34.3659,107.359,85.75,32,31,4.74
302,Antofagasta,CL,2022-05-22 04:42:01,-23.65,-70.4,58.28,71,33,6.2
303,Tiznit,MA,2022-05-22 04:45:09,29.5833,-9.5,68.16,48,84,1.5
304,Nueva Guinea,NI,2022-05-22 04:45:10,11.6876,-84.4562,73.44,97,100,7.25
305,Kununurra,AU,2022-05-22 04:45:10,-15.7667,128.7333,91.38,21,4,9.22
306,Te Anau,NZ,2022-05-22 04:45:11,-45.4167,167.7167,42.4,79,52,4.29
307,Boyolangu,ID,2022-05-22 04:46:11,-8.1181,111.8935,85.46,66,31,1.59
308,Torbay,CA,2022-05-22 04:46:12,47.6666,-52.7314,52.57,54,100,13.8
309,Srednekolymsk,RU,2022-05-22 04:46:12,67.45,153.6833,55.33,48,100,10.42
310,San Patricio,US,2022-05-22 04:46:13,28.017,-97.5169,82.49,93,32,13.85
311,Penzance,GB,2022-05-22 04:46:13,50.1186,-5.5371,52.48,85,41,7.09
312,Fort Wellington,GY,2022-05-22 04:46:14,6.4,-57.6,75.16,92,100,10.98
313,Harrison,US,2022-05-22 04:46:14,30.4091,-89.0436,80.67,84,75,17.27
314,Cherdyn,RU,2022-05-22 04:46:15,60.403,56.4787,35.46,96,100,7.0
315,Namibe,AO,2022-05-22 04:46:15,-15.1961,12.1522,66.33,63,42,1.79
316,Zhangjiakou,CN,2022-05-22 04:46:16,40.81,114.8794,85.89,15,99,1.5
317,Songjianghe,CN,2022-05-22 04:46:16,42.1859,127.479,70.7,26,10,6.53
318,Garcia,MX,2022-05-22 04:42:10,25.8167,-100.5833,87.71,51,0,7.25
319,Shimoda,JP,2022-05-22 04:46:17,34.6667,138.95,71.96,75,56,4.65
320,Ugoofaaru,MV,2022-05-22 04:46:18,5.6667,73.0,83.52,77,31,14.38
321,Kuching,MY,2022-05-22 04:46:18,1.55,110.3333,89.82,66,40,4.61
322,Terre Haute,US,2022-05-22 04:46:19,39.4667,-87.4139,64.67,92,100,5.75
323,Sri Aman,MY,2022-05-22 04:46:19,1.2376,111.4621,87.85,74,20,2.3
324,Cap Malheureux,MU,2022-05-22 04:46:19,-19.9842,57.6142,73.47,77,2,8.99
325,Menongue,AO,2022-05-22 04:46:20,-14.6585,17.691,46.76,47,42,4.16
326,Bakel,SN,2022-05-22 04:46:21,14.905,-12.4568,81.72,33,100,14.52
327,Mandapam,IN,2022-05-22 04:46:21,9.2833,79.1167,84.92,69,51,17.29
328,Naryan-Mar,RU,2022-05-22 04:46:22,67.6713,53.087,29.32,73,98,18.97
329,Verkhnevilyuysk,RU,2022-05-22 04:46:22,63.4453,120.3167,61.02,39,87,4.85
330,Hasaki,JP,2022-05-22 04:44:40,35.7333,140.8333,70.29,79,90,20.51
331,San Quintin,MX,2022-05-22 04:46:23,30.4833,-115.95,59.22,77,60,3.62
332,Pisco,PE,2022-05-22 04:46:23,-13.7,-76.2167,60.03,94,100,2.3
333,Vadso,NO,2022-05-22 04:46:24,70.0744,29.7487,40.08,93,100,5.75
334,Evensk,RU,2022-05-22 04:43:50,61.95,159.2333,38.17,96,100,2.17
335,Palmer,US,2022-05-22 04:46:25,42.1584,-72.3287,74.48,75,0,6.91
336,Tandil,AR,2022-05-22 04:46:25,-37.3217,-59.1332,45.12,63,0,1.25
337,Ucluelet,CA,2022-05-22 04:43:21,48.9329,-125.5528,50.09,88,4,1.01
338,Katherine,AU,2022-05-22 04:42:17,-14.4667,132.2667,89.92,29,6,11.5
339,Taonan,CN,2022-05-22 04:46:26,45.3333,122.7833,79.45,21,10,6.49
340,Harper,LR,2022-05-22 04:46:27,4.375,-7.7169,75.54,88,100,3.47
341,Severo-Kurilsk,RU,2022-05-22 04:46:27,50.6789,156.125,45.46,91,74,12.06
342,Gao,ML,2022-05-22 04:46:28,16.6362,1.637,82.33,36,53,3.27
343,Okha,RU,2022-05-22 04:46:28,53.5739,142.9478,35.29,99,100,4.29
344,Ambilobe,MG,2022-05-22 04:46:29,-13.2,49.05,79.2,70,8,4.65
345,Kemijarvi,FI,2022-05-22 04:46:29,66.7131,27.4306,47.89,78,100,4.79
346,Nagato,JP,2022-05-22 04:46:30,34.3833,131.2,82.2,67,0,12.12
347,Airai,TL,2022-05-22 04:46:30,-8.9266,125.4092,72.63,55,38,4.45
348,Fort Nelson,CA,2022-05-22 04:44:49,58.8053,-122.7002,60.39,29,40,8.05
349,Cochrane,CA,2022-05-22 04:46:31,51.1834,-114.4687,42.85,49,20,6.91
350,Marsh Harbour,BS,2022-05-22 04:43:26,26.5412,-77.0636,78.51,87,29,13.29
351,Grand Baie,MU,2022-05-22 04:46:32,-20.0182,57.5802,73.87,77,3,8.99
352,Urengoy,RU,2022-05-22 04:47:32,65.9667,78.3667,43.32,69,100,2.68
353,Paamiut,GL,2022-05-22 04:47:33,61.994,-49.6678,39.92,80,100,41.2
354,Emet,TR,2022-05-22 04:47:33,39.343,29.2585,62.42,49,5,1.32
355,Nautla,MX,2022-05-22 04:46:14,20.2167,-96.7833,80.82,80,0,11.14
356,Mount Gambier,AU,2022-05-22 04:47:34,-37.8333,140.7667,62.33,52,2,5.1
357,Comodoro Rivadavia,AR,2022-05-22 04:45:04,-45.8667,-67.5,44.46,93,0,3.44
358,Orumiyeh,IR,2022-05-22 04:45:57,37.5527,45.0761,54.95,47,0,4.61
359,Honiara,SB,2022-05-22 04:43:58,-9.4333,159.95,84.31,70,33,3.15
360,Kruisfontein,ZA,2022-05-22 04:44:31,-34.0033,24.7314,47.88,87,2,4.45
361,Goiatuba,BR,2022-05-22 04:47:35,-18.0125,-49.3547,52.48,55,2,3.58
362,Kraksaan,ID,2022-05-22 04:47:36,-7.7585,113.3962,86.92,62,30,7.87
363,Anaconda,US,2022-05-22 04:47:36,46.1285,-112.9423,43.79,74,100,3.18
364,East London,ZA,2022-05-22 04:46:42,-33.0153,27.9116,50.94,87,0,3.44
365,Port Pirie,AU,2022-05-22 04:47:37,-33.1833,138.0167,66.83,53,37,5.59
366,Labrea,BR,2022-05-22 04:47:37,-7.2586,-64.7981,73.44,80,40,1.1
367,Ayagoz,KZ,2022-05-22 04:47:38,47.9714,80.4392,77.47,37,83,18.86
368,Pacifica,US,2022-05-22 04:47:38,37.6138,-122.4869,62.58,79,20,17.27
369,Lagoa,PT,2022-05-22 04:47:39,39.05,-27.9833,61.97,95,100,2.17
370,Piacabucu,BR,2022-05-22 04:47:39,-10.4056,-36.4344,76.69,75,98,13.27
371,Fuerte Olimpo,PY,2022-05-22 04:47:40,-21.0415,-57.8738,58.08,57,46,5.06
372,Beaufort,MY,2022-05-22 04:47:40,5.3473,115.7455,86.58,68,100,0.29
373,Puerto Pailas,BO,2022-05-22 04:47:41,-17.667,-62.7909,70.72,77,20,3.42
374,Port Hardy,CA,2022-05-22 04:47:41,50.6996,-127.4199,50.18,87,20,4.61
375,Kabinda,CD,2022-05-22 04:47:42,-6.1333,24.4833,68.72,81,41,1.34
376,Eureka,US,2022-05-22 04:47:42,40.8021,-124.1637,54.68,85,41,8.99
377,Caceres,ES,2022-05-22 04:47:43,39.522,-6.3748,56.53,91,100,5.57
378,Caloundra,AU,2022-05-22 04:47:43,-26.8,153.1333,67.89,93,95,3.0
379,Miandrivazo,MG,2022-05-22 04:47:44,-19.5167,45.4667,75.51,55,2,4.03
380,Veraval,IN,2022-05-22 04:47:44,20.9,70.3667,86.49,66,96,19.84
381,Tuatapere,NZ,2022-05-22 04:47:45,-46.1333,167.6833,44.87,75,63,13.6
382,Sumbe,AO,2022-05-22 04:47:45,-11.2061,13.8437,69.84,87,30,3.38
383,Tasiilaq,GL,2022-05-22 04:47:46,65.6145,-37.6368,32.16,71,51,4.05
384,San Carlos De Bariloche,AR,2022-05-22 04:43:26,-41.1456,-71.3082,46.15,71,75,28.77
385,Lakes Entrance,AU,2022-05-22 04:47:47,-37.8811,147.981,58.15,68,0,7.63
386,Nkhotakota,MW,2022-05-22 04:47:47,-12.9274,34.2961,72.19,72,35,6.04
387,Ha Giang,VN,2022-05-22 04:47:48,22.8333,104.9833,71.73,99,100,1.74
388,Suffolk,US,2022-05-22 04:47:43,40.8668,-72.7996,73.06,87,0,5.75
389,Lappeenranta,FI,2022-05-22 04:47:48,61.0587,28.1887,46.8,52,0,5.75
390,Ongandjera,NA,2022-05-22 04:47:49,-17.8833,15.0667,50.36,21,0,8.52
391,Inirida,CO,2022-05-22 04:47:49,3.8653,-67.9239,71.13,99,100,2.39
392,Kuryk,KZ,2022-05-22 04:47:50,43.2,51.65,62.78,68,7,23.06
393,Maragogi,BR,2022-05-22 04:43:19,-9.0122,-35.2225,76.12,85,91,13.51
394,Mathathane,BW,2022-05-22 04:47:51,-22.2687,28.7495,52.27,53,5,7.0
395,Omboue,GA,2022-05-22 04:47:51,-1.5746,9.2618,73.83,90,98,6.24
396,Udachnyy,RU,2022-05-22 04:47:52,66.4167,112.4,61.45,44,18,4.09
397,Iskateley,RU,2022-05-22 04:47:52,67.6803,53.1512,29.03,74,98,18.72
398,Neuquen,AR,2022-05-22 04:44:11,-38.9516,-68.0591,46.29,57,0,0.0
399,Springdale,US,2022-05-22 04:46:26,36.1867,-94.1288,55.51,93,75,11.99
400,Treinta Y Tres,UY,2022-05-22 04:48:53,-33.2333,-54.3833,48.74,89,100,5.01
401,Nhulunbuy,AU,2022-05-22 04:48:54,-12.2333,136.7667,88.41,55,40,17.27
402,Sitka,US,2022-05-22 04:48:54,57.0531,-135.33,55.29,67,0,4.61
403,Kedrovyy,RU,2022-05-22 04:48:54,56.1667,91.8167,70.21,35,27,3.49
404,Tocache,PE,2022-05-22 04:48:55,-8.1842,-76.5125,71.89,83,81,1.1
405,Dingle,PH,2022-05-22 04:48:55,10.9995,122.6711,87.94,63,100,6.4
406,West Bend,US,2022-05-22 04:47:02,43.4253,-88.1834,51.78,81,100,0.0
407,Salinopolis,BR,2022-05-22 04:48:56,-0.6136,-47.3561,75.96,87,19,4.12
408,Ancud,CL,2022-05-22 04:44:03,-41.8697,-73.8203,53.01,95,100,23.58
409,Malakal,SS,2022-05-22 04:48:57,9.5334,31.6605,78.1,69,98,5.17
410,Eyl,SO,2022-05-22 04:48:57,7.9803,49.8164,88.12,51,86,24.18
411,Murmashi,RU,2022-05-22 04:48:58,68.8154,32.8115,39.61,75,75,11.18
412,Araouane,ML,2022-05-22 04:48:58,18.9048,-3.5265,83.39,15,1,3.31
413,San Vicente,AR,2022-05-22 04:48:59,-26.6167,-54.1333,46.67,84,42,2.15
414,Santiago De Cao,PE,2022-05-22 04:49:00,-7.9589,-79.2392,60.93,88,32,10.36
415,Solhan,TR,2022-05-22 04:49:00,38.9634,41.0293,58.39,45,2,3.11
416,Pilar,BR,2022-05-22 04:49:01,-9.5972,-35.9567,75.13,93,81,5.64
417,Morant Bay,JM,2022-05-22 04:49:01,17.8815,-76.4093,82.02,88,84,10.2
418,Thanh Hoa,VN,2022-05-22 04:49:01,19.8,105.7667,82.65,81,100,7.27
419,Diego De Almagro,CL,2022-05-22 04:49:02,-26.3667,-70.05,56.57,40,0,2.86
420,Date,JP,2022-05-22 04:49:03,42.4681,140.8681,60.28,68,84,12.21
421,Koungou,YT,2022-05-22 04:49:03,-12.7336,45.2042,82.11,74,40,11.5
422,Kirakira,SB,2022-05-22 04:49:04,-10.4544,161.9205,83.75,70,19,4.85
423,Wanning,CN,2022-05-22 04:49:04,18.8003,110.3967,85.06,73,99,9.4
424,Baghmara,IN,2022-05-22 04:49:05,23.795,86.2085,101.25,24,30,1.23
425,Qaqortoq,GL,2022-05-22 04:49:05,60.7167,-46.0333,39.24,82,100,11.39
426,Alibag,IN,2022-05-22 04:49:06,18.6411,72.8792,89.67,62,69,10.29
427,Klaksvik,FO,2022-05-22 04:49:06,62.2266,-6.589,47.32,88,100,12.77
428,Las Cruces,US,2022-05-22 04:47:06,32.3123,-106.7783,75.99,16,0,8.05
429,Surt,LY,2022-05-22 04:49:08,31.2089,16.5887,64.83,47,0,5.19
430,Challans,FR,2022-05-22 04:49:08,46.8436,-1.8749,64.6,77,99,12.48
431,Manaus,BR,2022-05-22 04:49:09,-3.1019,-60.025,77.49,88,0,3.44
432,Shahr-E Kord,IR,2022-05-22 04:49:09,32.3256,50.8644,53.37,22,0,4.61
433,Ilulissat,GL,2022-05-22 04:44:14,69.2167,-51.1,39.22,65,100,4.61
434,Pecos,US,2022-05-22 04:49:10,31.4229,-103.4932,75.29,25,0,12.66
435,Aswan,EG,2022-05-22 04:49:10,24.0934,32.907,74.5,20,0,9.22
436,Onega,RU,2022-05-22 04:49:11,63.9061,38.1404,36.91,52,8,9.4
437,Magadi,IN,2022-05-22 04:49:11,12.9667,77.2333,80.06,76,98,13.91
438,Margate,GB,2022-05-22 04:49:12,51.3813,1.3862,52.7,85,73,1.01
439,Shadrinsk,RU,2022-05-22 04:44:43,56.0852,63.6335,40.69,85,100,14.16
440,Tekeli,KZ,2022-05-22 04:49:12,44.83,78.8239,66.02,60,79,10.96
441,Awjilah,LY,2022-05-22 04:49:13,29.1081,21.2869,63.88,68,0,8.55
442,Baker City,US,2022-05-22 04:44:25,44.7749,-117.8344,47.91,70,20,10.36
443,Khromtau,KZ,2022-05-22 04:49:14,50.2503,58.4347,45.05,63,90,18.66
444,Tarko-Sale,RU,2022-05-22 04:49:14,64.9225,77.785,50.67,54,99,11.1
445,Imbituba,BR,2022-05-22 04:49:47,-28.24,-48.6703,56.86,99,0,4.76
446,Ulladulla,AU,2022-05-22 04:50:15,-35.35,150.4667,61.77,75,100,9.33
447,Bubaque,GW,2022-05-22 04:50:15,11.2833,-15.8333,78.03,77,100,10.38
448,Stonewall,CA,2022-05-22 04:50:16,50.1344,-97.3268,42.78,77,30,6.73
449,Mielec,PL,2022-05-22 04:45:40,50.2871,21.4239,54.79,82,34,15.12
450,Jieshi,CN,2022-05-22 04:50:16,22.8134,115.8257,75.9,81,100,15.7
451,Maceio,BR,2022-05-22 04:50:17,-9.6658,-35.7353,76.44,78,40,4.61
452,Norman Wells,CA,2022-05-22 04:50:17,65.282,-126.8329,42.84,93,100,3.44
453,Cayenne,GF,2022-05-22 04:50:18,4.9333,-52.3333,76.08,1,0,0.0
454,Santo Antonio Do Ica,BR,2022-05-22 04:50:18,-3.1022,-67.9397,71.58,99,99,1.14
455,Padang,ID,2022-05-22 04:50:19,-0.9492,100.3543,87.85,68,74,5.59
456,Svetlyy,RU,2022-05-22 04:50:19,54.675,20.1347,48.25,92,100,18.77
457,Visby,SE,2022-05-22 04:50:20,57.6409,18.296,46.62,87,75,10.36
458,Vertientes,CU,2022-05-22 04:50:20,21.2594,-78.1464,75.96,93,100,11.12
459,Labuhan,ID,2022-05-22 04:48:44,-6.8844,112.2051,86.88,64,63,10.96
460,Starosubkhangulovo,RU,2022-05-22 04:50:21,53.1031,57.4423,39.63,90,100,11.25
461,Berbera,SO,2022-05-22 04:50:22,10.4396,45.0143,94.15,41,96,10.0
462,Mogadouro,PT,2022-05-22 04:50:22,41.3403,-6.7119,53.94,83,88,5.73
463,Hinatuan,PH,2022-05-22 04:50:23,8.3722,126.3342,85.78,70,95,7.09
464,Gushikawa,JP,2022-05-22 04:50:23,26.3544,127.8686,80.6,67,40,12.66
465,Hailar,CN,2022-05-22 04:50:24,49.2,119.7,77.18,16,88,21.27
466,Laizhou,CN,2022-05-22 04:50:24,37.1717,119.9214,89.37,23,0,6.02
467,Huarmey,PE,2022-05-22 04:50:25,-10.0681,-78.1522,64.49,87,36,7.45
468,Phalombe,MW,2022-05-22 04:50:25,-15.8064,35.6507,66.63,71,5,3.24
469,Knysna,ZA,2022-05-22 04:50:26,-34.0363,23.0471,54.27,70,28,3.51
470,Jiayuguan,CN,2022-05-22 04:45:53,39.8167,98.3,80.11,12,1,16.51
471,Anadyr,RU,2022-05-22 04:45:37,64.75,177.4833,50.5,57,0,6.71
472,Bardiyah,LY,2022-05-22 04:50:26,31.7561,25.0865,65.08,74,0,20.6
473,Kisanga,TZ,2022-05-22 04:50:27,-7.4362,37.7034,73.54,88,92,1.36
474,Acapulco,MX,2022-05-22 04:48:28,16.8634,-99.8901,78.96,72,0,1.92
475,Ipswich,GB,2022-05-22 04:45:52,52.0592,1.1555,54.05,85,79,4.61
476,Kenai,US,2022-05-22 04:50:28,60.5544,-151.2583,62.69,20,40,14.97
477,Richards Bay,ZA,2022-05-22 04:50:28,-28.783,32.0377,62.6,78,100,19.48
478,Peace River,CA,2022-05-22 04:50:29,56.2501,-117.286,57.51,24,75,8.05
479,Grand Gaube,MU,2022-05-22 04:50:29,-20.0064,57.6608,73.8,79,3,5.01
480,Kholtoson,RU,2022-05-22 04:50:30,50.2981,103.3097,72.45,20,7,8.32
481,Hokitika,NZ,2022-05-22 04:50:30,-42.7167,170.9667,53.4,76,99,17.36
482,Kinshasa,CD,2022-05-22 04:46:17,-4.3246,15.3215,71.26,90,75,1.68
483,Bambanglipuro,ID,2022-05-22 04:50:31,-7.95,110.2833,86.54,62,57,2.82
484,Beringovskiy,RU,2022-05-22 04:50:32,63.05,179.3167,38.01,82,100,9.4
485,Saurimo,AO,2022-05-22 04:50:11,-9.6608,20.3916,60.06,64,15,3.67
486,Banikoara,BJ,2022-05-22 04:50:33,11.2985,2.4386,78.42,67,87,5.17
487,Barcelona,ES,2022-05-22 04:49:45,41.3888,2.159,77.72,44,0,5.75
488,Tucurui,BR,2022-05-22 04:50:33,-3.7661,-49.6725,72.0,86,92,0.89
489,Pula,HR,2022-05-22 04:50:34,44.8683,13.8481,61.36,94,0,1.14
490,Quetta,PK,2022-05-22 04:50:34,30.199,67.0097,80.56,8,0,8.63
491,Kushiro,JP,2022-05-22 04:50:35,42.975,144.3747,56.35,94,75,9.22
492,Yerbogachen,RU,2022-05-22 04:51:35,61.2767,108.0108,58.78,64,84,8.46
493,Batticaloa,LK,2022-05-22 04:51:36,7.7102,81.6924,88.27,54,100,5.06
494,Ostersund,SE,2022-05-22 04:51:36,63.1792,14.6357,49.6,61,100,4.61
495,Juneau,US,2022-05-22 04:49:48,58.3019,-134.4197,66.2,77,0,4.61
496,Kabo,CF,2022-05-22 04:51:37,7.6994,18.629,74.21,83,99,3.8
497,Sabha,LY,2022-05-22 04:51:38,27.0377,14.4283,64.29,23,0,10.54
498,Gulu,UG,2022-05-22 04:51:38,2.7746,32.299,67.95,85,71,1.3
499,Bom Jesus,BR,2022-05-22 04:51:39,-9.0744,-44.3586,67.68,86,22,1.23
500,Ilhabela,BR,2022-05-22 04:51:39,-23.7781,-45.3581,64.0,87,26,4.12
501,Ventersburg,ZA,2022-05-22 04:51:40,-28.0856,27.1381,46.72,88,98,5.06
502,La Ronge,CA,2022-05-22 04:51:40,55.1001,-105.2842,48.45,29,0,3.44
503,College,US,2022-05-22 04:51:41,64.8569,-147.8028,69.75,34,75,14.97
504,Dzerzhinskoye,RU,2022-05-22 04:51:42,56.8344,95.2283,60.84,43,84,7.99
505,Husavik,IS,2022-05-22 04:51:42,66.0449,-17.3389,39.0,98,100,11.03
506,Waipawa,NZ,2022-05-22 04:51:43,-41.4122,175.5153,51.98,70,9,5.01
507,Manta,EC,2022-05-22 04:51:43,-0.95,-80.7333,74.98,88,40,10.36
508,Dunapataj,HU,2022-05-22 04:51:44,46.644,18.9963,58.96,66,60,9.06
509,Tocopilla,CL,2022-05-22 04:51:44,-22.092,-70.1979,64.18,71,43,5.37
510,Gatton,AU,2022-05-22 04:51:45,-27.55,152.2833,68.94,90,100,7.05
511,Blankenburg,DE,2022-05-22 04:51:45,51.7833,10.95,52.75,90,90,1.72
512,Adrar,MR,2022-05-22 04:51:46,20.5022,-10.0711,85.78,11,1,7.65
513,Mkushi,ZM,2022-05-22 04:51:46,-13.6202,29.3939,59.4,80,91,0.94
514,Turka,UA,2022-05-22 04:51:47,49.1541,23.0297,49.1,78,55,12.77
515,Tarakan,ID,2022-05-22 04:51:47,3.3,117.6333,83.7,74,40,5.75
516,Moroto,UG,2022-05-22 04:51:48,2.5345,34.6666,70.2,66,92,0.83
517,Gaziantep,TR,2022-05-22 04:51:48,37.0594,37.3825,68.56,30,0,4.61
518,Aykino,RU,2022-05-22 04:51:49,62.2248,49.9922,34.07,89,100,11.18
519,Dickinson,US,2022-05-22 04:51:49,29.4608,-95.0513,83.16,87,100,9.22
520,Thinadhoo,MV,2022-05-22 04:51:50,0.5333,72.9333,83.52,72,100,10.45
521,Itamaraca,BR,2022-05-22 04:51:50,-7.7478,-34.8256,77.05,88,93,12.03
522,Gornyak,RU,2022-05-22 04:51:51,50.9942,81.4661,80.2,35,100,20.49
523,Kulu,TR,2022-05-22 04:51:52,39.0951,33.0799,62.71,42,0,3.24
524,Umm Lajj,SA,2022-05-22 04:51:52,25.0213,37.2685,81.18,68,0,13.73
525,Khovu-Aksy,RU,2022-05-22 04:51:53,51.1333,93.6,71.71,25,78,4.92
526,Haines Junction,CA,2022-05-22 04:51:53,60.7522,-137.5108,55.35,28,36,10.36
527,Axim,GH,2022-05-22 04:51:54,4.8699,-2.2405,74.62,93,100,2.17
528,Quelimane,MZ,2022-05-22 04:51:54,-17.8786,36.8883,73.35,88,40,5.75
529,Carauari,BR,2022-05-22 04:51:55,-4.8828,-66.8958,71.1,98,74,1.92
530,Ajdabiya,LY,2022-05-22 04:51:55,30.7554,20.2263,64.85,75,0,9.89
531,Akure,NG,2022-05-22 04:51:56,7.2526,5.1931,70.47,96,100,3.2
532,Kribi,CM,2022-05-22 04:51:56,2.95,9.9167,76.41,90,100,5.14
533,Chitrakonda,IN,2022-05-22 04:51:57,18.1167,82.0833,93.74,38,24,7.38
534,Vestmanna,FO,2022-05-22 04:51:57,62.1564,-7.1664,45.52,100,100,12.66
535,Vostok,RU,2022-05-22 04:52:58,46.4856,135.8833,48.09,96,100,2.55
536,Campbell River,CA,2022-05-22 04:52:58,50.0163,-125.2446,60.33,58,0,2.3
537,Aitape,PG,2022-05-22 04:52:59,-3.1374,142.3475,82.27,83,100,6.85
538,Plaridel,PH,2022-05-22 04:52:59,14.8872,120.8572,91.11,60,100,8.34
539,Sumbawanga,TZ,2022-05-22 04:53:00,-7.9667,31.6167,58.8,82,20,3.44
540,Lasa,IT,2022-05-22 04:53:00,46.6166,10.7002,58.08,61,26,5.06
541,Ferrol,ES,2022-05-22 04:53:01,43.4832,-8.2369,63.12,85,85,4.45
542,Asau,RO,2022-05-22 04:53:01,46.4333,26.4,60.96,54,95,1.05
543,Walvis Bay,NA,2022-05-22 04:53:02,-22.9575,14.5053,49.15,53,5,5.75
544,Roma,US,2022-05-22 04:53:02,43.2128,-75.4557,71.96,78,100,1.99
545,Bara,NG,2022-05-22 04:53:03,10.3744,10.7288,79.14,70,98,10.51
546,Santo Tomas,PH,2022-05-22 04:53:03,14.1079,121.1414,88.05,82,97,2.84
547,Panguna,PG,2022-05-22 04:53:04,-6.3164,155.4848,77.85,73,39,3.24
